{"location": [28.602198676663033, -80.81752273354974], "radius": 50000, "hotels": [{"id": "ChIJLbM-92cd3ogR8qaJeRwPDDk", "name": "Hilton Cocoa Beach Oceanfront", "lat": 28.3387085, "lng": -80.60774289999999, "availability": 0.7}, {"id": "ChIJVVVVVbSn4IgR4ELTSeOMT2Q", "name": "Radisson Resort at the Port", "lat": 28.395608499999998, "lng": -80.6124337, "availability": 0.7}, {"id": "ChIJ_4S2ElCm4IgRrwZsEaOVi68", "name": "Holiday Inn Club Vacations Cape Canaveral Beach Resort", "lat": 28.4052322, "lng": -80.5972925, "availability": 0.7}, {"id": "ChIJS8R7RDyt4IgRmBc67zwQgZo", "name": "Hyatt Place Titusville / Kennedy Space Center", "lat": 28.521200099999998, "lng": -80.78666059999999, "availability": 0.7}, {"id": "ChIJZ6puaxut4IgRmyGfcwrSzu8", "name": "Courtyard Titusville Kennedy Space Center", "lat": 28.524964399999998, "lng": -80.7822922, "availability": 0.7}, {"id": "ChIJeaSSjF9o54gRPHTyrV2XRoU", "name": "The Celeste Hotel, Orlando, a Tribute Portfolio Hotel", "lat": 28.5991185, "lng": -81.2070288, "availability": 0.7}, {"id": "ChIJFexv05Wn4IgR5yFNBkqNY9E", "name": "Best Western Cocoa Beach Hotel & Suites", "lat": 28.368969999999997, "lng": -80.604524, "availability": 0.7}, {"id": "ChIJNzuJ8PRo54gR9n3jZN7ONzo", "name": "DoubleTree by Hilton Hotel Orlando East-UCF Area", "lat": 28.6001808, "lng": -81.2112325, "availability": 0.7}, {"id": "ChIJPcKAkzOm4IgR6Vie5S7ooIQ", "name": "Country Inn & Suites by Radisson, Port Canaveral, FL", "lat": 28.400015999999997, "lng": -80.61711439999999, "availability": 0.7}, {"id": "ChIJ1R6QLOGn4IgRmYHI1s9X-4M", "name": "Beachside Hotel & Suites", "lat": 28.354689399999998, "lng": -80.608173, "availability": 0.7}]}
